[{ "title": "Marias Yard Sale",
  "address":{
    "lat": 40.872994,
    "lon": -73.902004,
    "street": "2823 Sedgwick Ave", 
    "city": "Bronx",
    "state": "NY", 
    "zipCode": 10468
    },
<<<<<<< HEAD
 "items":["chairs",
	    "pants",
	    "lamp"
        ]   
=======
 "items":[
        "chairs",
	    "pants",
	    "lamp"
        ]  
>>>>>>> acaf19137e4bb6d6a2e020883e6f5be3cbe04dd1
},

{ "title": "Joeys Yard Sale",
  "address":{
<<<<<<< HEAD
    "lat": 40.873318, 
    "lon": -73.894139,
    "street": "285 Saint Anns Place", 
    "city": "Brooklyn",
    "state": "New York", 
    "zipCode": 11238
    },
 "items":["chairs",
	    "books",
	    "lamp"
        ]   
},
 
{ "title": "Tyreiks Yard Sale",
  "address":{
    "lat": 40.782865,
    "lon":  -73.965355,
    "street": "285 Saint Anns Place", 
    "city": "Brooklyn",
    "state": "New York", 
    "zipCode": 11238
    },
 "items":["chairs",
	    "tables",
	    "lamp"
        ]   
}
]
=======
    "lat": 40.876466,
    "lon": -73.88679,
    "street": "Villa Ave", 
    "city": "Bronx",
    "state": "NY", 
    "zipCode": 10468
    },
 "items":[
        "chairs",
	    "pants",
	    "lamp"
        ]  
},

{ "title": "Tyrieks Yard Sale",
  "address":{
    "lat": 40.864978,
    "lon": -73.899493,
    "street": "Jerome Ave", 
    "city": "Bronx",
    "state": "NY", 
    "zipCode": 10468
    },
 "items":[
        "chairs",
	    "pants",
	    "lamp"
        ]  
},

{ "title": "Annabelles Yard Sale",
  "address":{
    "lat": 40.881722,
    "lon": -73.907561,
    "street": "Tibbett Ave", 
    "city": "Bronx",
    "state": "NY", 
    "zipCode": 10463
    },
 "items":[
        "chairs",
	    "pants",
	    "lamp"
        ]  
}]
>>>>>>> acaf19137e4bb6d6a2e020883e6f5be3cbe04dd1
